,city,country,lat,lon
0,Glendale,USA,34.18193183035625,-118.24683528026183
1,Paradise,USA,36.08716233730059,-115.1355557882915
2,Arlington,USA,32.69987260399962,-97.12505025906377
3,Tampa,USA,27.995294605583023,-82.44425471925804
4,Houston,USA,29.77661316813318,-95.37596167494573
5,Atlanta,USA,33.76281099319345,-84.42221120738853
6,Nashville,USA,36.17141597741194,-86.78435713158962
7,Philadelphia,USA,40.007608910451594,-75.13407360222796
8,Foxborough,USA,42.06266025665342,-71.2461331367998
9,East Rutherford,USA,40.8179465816598,-74.08541451341982
10,Chicago,USA,41.83818747621185,-87.68569214267272
11,Detroit,USA,42.38340293058643,-83.10215033314546
12,Pittsburgh,USA,40.43963485717007,-79.97642734827211
13,Minneapolis,USA,44.9635771925453,-93.26782325495793
14,Cincinnati,USA,39.14122182342631,-84.50607016251682
15,Kansas City,USA,39.12394182847026,-94.55412124298357
16,Denver,USA,39.76213554237362,-104.87564243612921
17,Seattle,USA,47.61958018244469,-122.35127320310819
18,Santa Clara,USA,37.36436044959148,-121.96800022438167
19,Inglewood,USA,33.95653233169604,-118.34447407391585
20,Miami Gardens,USA,25.94324502674539,-80.24252838815157
21,New Orleans,USA,30.068432234210142,-89.92944404814747
22,Indianapolis,USA,39.77712793817274,-86.14576828717102
